City_ID,City,Lat,Lng,Max Temp,Humidity,Cloudiness,Wind Speed,Country,Date
0,busselton,-33.6445,115.3489,302.39,83,2,5.41,Australia/Perth,1675895673
1,ewa beach,21.3156,-158.0088,298.69,54,0,7.72,Pacific/Honolulu,1675895674
2,yellowknife,62.4541,-114.3774,253.66,84,20,2.57,America/Yellowknife,1675895676
3,tuktoyaktuk,69.444,-133.0319,245.96,68,20,2.06,America/Inuvik,1675895678
4,saskylakh,71.965,114.0939,235.87,100,83,2.89,Asia/Yakutsk,1675895679
5,mount gambier,-37.8247,140.782,300.03,51,5,2.09,Australia/Adelaide,1675895680
6,farim,36.1758,53.2654,275.26,100,100,1.11,Asia/Tehran,1675895682
7,punta arenas,-53.1626,-70.9078,290.2,67,75,10.8,America/Punta_Arenas,1675895683
8,nanakuli,21.3891,-158.1523,298.7,43,0,7.72,Pacific/Honolulu,1675895684
9,sorland,61.8986,5.7913,279.9,81,100,7.72,Europe/Oslo,1675895686
10,castro,45.803,10.0671,276.88,41,99,0.89,Europe/Rome,1675895687
11,cape town,-33.929,18.4174,298.62,67,0,6.71,Africa/Johannesburg,1675895688
12,port hardy,50.7244,-127.4976,278.41,87,100,7.72,America/Vancouver,1675895689
13,new norfolk,-42.7802,147.0615,294.19,61,100,0.45,Australia/Hobart,1675895691
14,chipinge,-20.1889,32.6194,301.16,89,77,1.44,Africa/Harare,1675895692
15,ploufragan,48.4893,-2.7933,280.53,84,0,2.06,Europe/Paris,1675895693
16,tuatapere,-46.1323,167.6908,287.16,73,92,4.64,Pacific/Auckland,1675895694
17,esperance,-33.8582,121.8932,294.16,71,92,6.31,Australia/Perth,1675895695
18,mataura,-46.1927,168.8643,286.74,85,95,3.72,Pacific/Auckland,1675895697
19,chokurdakh,70.6194,147.9024,242.33,97,100,2.08,Asia/Srednekolymsk,1675895701
20,albany,42.6512,-73.755,279.05,60,20,4.12,America/New_York,1675895703
21,palmas bellas,9.2281,-80.0857,300.9,81,40,6.08,America/Panama,1675895705
22,ribeira grande,37.8225,-25.5195,287.37,58,75,2.57,Atlantic/Azores,1675895707
23,coahuayana,18.622,-100.3485,303.46,24,0,1.99,America/Mexico_City,1675895710
24,vaini,-21.1926,-175.1773,302.31,79,75,4.12,Pacific/Tongatapu,1675895711
25,gold coast,-28.0024,153.4146,298.49,89,82,6.08,Australia/Brisbane,1675895713
26,puerto ayora,-0.7472,-90.3134,301.46,89,96,4.02,Pacific/Galapagos,1675895714
27,sept-iles,50.211,-66.3791,270.8,66,20,6.17,America/Toronto,1675895716
28,butaritari,2.9205,172.9189,300.57,82,98,9.29,Pacific/Tarawa,1675895717
29,nikolskoye,59.7035,30.7861,273.92,95,100,3.73,Europe/Moscow,1675895719
30,ilulissat,69.2197,-51.0986,252.31,54,0,1.54,America/Nuuk,1675895721
31,rikitea,-23.123,-134.968,299.92,73,21,5.6,Pacific/Gambier,1675895722
32,falealupo,-13.4992,-172.7862,301.19,78,98,6.98,Pacific/Apia,1675895724
33,ushuaia,-54.8061,-68.3185,290.54,72,100,1.03,America/Argentina/Ushuaia,1675895726
34,cabo san lucas,22.8939,-109.9201,296.28,40,0,8.23,America/Mazatlan,1675895727
35,amderma,69.7522,61.6623,271.09,95,100,5.24,Europe/Moscow,1675895730
36,cherskiy,12.0,12.0,306.99,21,37,4.17,Africa/Lagos,1675895731
37,karimganj,24.8647,92.3681,302.77,62,46,1.6,Asia/Kolkata,1675895733
38,kavieng,-2.5735,150.7952,301.76,76,95,3.06,Pacific/Port_Moresby,1675895735
39,jamestown,-15.9277,-5.7161,296.23,77,38,6.33,Atlantic/St_Helena,1675895736
40,saldanha,-32.9978,17.9456,295.85,68,47,3.69,Africa/Johannesburg,1675895738
41,diplo,24.5026,69.551,305.87,52,15,4.05,Asia/Karachi,1675895739
42,sao filipe,14.8953,-24.4969,294.59,72,29,5.29,Atlantic/Cape_Verde,1675895740
43,pevek,69.7028,170.2747,245.43,100,100,3.57,Asia/Anadyr,1675895741
44,hobart,-42.8825,147.3281,292.62,71,75,2.57,Australia/Hobart,1675895743
45,hithadhoo,1.7959,73.3876,300.77,71,78,3.34,Indian/Maldives,1675895744
46,saint-pierre,48.3833,7.4719,277.99,70,0,0.56,Europe/Paris,1675895745
47,kavaratti,10.5672,72.6395,299.83,76,90,2.56,Asia/Kolkata,1675895746
48,ippy,6.2606,21.2,311.58,15,4,3.31,Africa/Bangui,1675895748
49,mabaruma,8.2037,-59.7849,302.13,88,75,1.82,America/Guyana,1675895749
50,atuona,-9.8037,-139.0426,299.83,80,16,8.43,Pacific/Marquesas,1675895750
51,attawapiskat,52.9244,-82.427,258.84,61,0,1.54,America/Nipigon,1675895751
52,mar del plata,-37.9977,-57.5483,301.56,80,0,4.12,America/Argentina/Buenos_Aires,1675895753
53,goroka,-6.073,145.3933,293.58,95,99,0.33,Pacific/Port_Moresby,1675895754
54,arroyo,-15.5311,-69.9098,285.33,68,82,4.14,America/Lima,1675895755
55,hohhot,40.8338,111.6731,274.15,100,75,1.0,Asia/Shanghai,1675895756
56,hermanus,-34.4175,19.2361,300.06,79,0,6.61,Africa/Johannesburg,1675895757
57,isangel,-19.5411,169.2811,299.76,89,100,5.14,Pacific/Efate,1675895759
58,mogadishu,2.0349,45.3419,301.19,82,6,7.39,Africa/Mogadishu,1675895760
59,dhidhdhoo,6.889,73.1134,300.08,72,99,0.99,Indian/Maldives,1675895761
60,hidalgotitlan,17.7725,-94.6464,300.87,75,0,3.53,America/Mexico_City,1675895763
61,barentsburg,78.0654,14.2172,271.02,86,100,4.79,Arctic/Longyearbyen,1675895765
62,mocuba,-16.8392,36.9856,306.33,96,100,1.36,Africa/Maputo,1675895766
63,lorengau,-2.033,147.2789,301.36,80,100,4.72,Pacific/Port_Moresby,1675895768
64,katsuura,35.1522,140.3207,282.11,55,63,6.82,Asia/Tokyo,1675895769
65,cap-aux-meules,47.3775,-61.8662,271.19,86,75,5.14,America/Halifax,1675895771
66,farsund,58.0387,6.5848,279.48,100,100,12.25,Europe/Oslo,1675895772
67,east london,-33.0192,27.8999,295.51,90,100,0.74,Africa/Johannesburg,1675895774
68,hope mills,34.9704,-78.9453,295.8,36,0,1.54,America/New_York,1675895775
69,natitingou,10.3052,1.3809,309.48,15,84,2.35,Africa/Porto-Novo,1675895777
70,puerto carreno,6.188,-67.4895,308.24,52,20,4.63,America/Bogota,1675895778
71,husavik,66.0433,-17.341,268.13,71,99,6.06,Atlantic/Reykjavik,1675895780
72,atar,20.5182,-13.0544,300.12,16,100,2.02,Africa/Nouakchott,1675895782
73,merauke,-8.4903,140.3956,300.66,90,100,5.45,Asia/Jayapura,1675895783
74,korhogo,9.4575,-5.6342,309.14,61,100,3.99,Africa/Abidjan,1675895785
75,lebu,-37.61,-73.6559,292.14,85,2,4.94,America/Santiago,1675895788
76,sisimiut,66.9372,-53.6665,255.48,78,93,3.67,America/Nuuk,1675895790
77,vytegra,61.0065,36.4515,274.61,96,97,2.74,Europe/Moscow,1675895791
78,rawson,-43.2991,-65.1057,303.09,35,78,10.02,America/Argentina/Catamarca,1675895794
79,nanortalik,60.14,-45.2429,272.55,83,100,1.75,America/Nuuk,1675895795
80,dhanera,24.5079,72.0235,305.28,26,8,1.43,Asia/Kolkata,1675895797
81,khatanga,71.9819,102.4715,231.56,100,62,1.98,Asia/Krasnoyarsk,1675895798
82,port blair,11.6645,92.739,301.43,74,85,3.18,Asia/Kolkata,1675895800
83,phuthaditjhaba,-28.5342,28.8163,292.28,98,100,2.49,Africa/Johannesburg,1675895801
84,wuwei,37.9289,102.636,277.98,51,14,2.08,Asia/Shanghai,1675895802
85,graaff-reinet,-32.2535,24.5336,298.32,91,100,1.88,Africa/Johannesburg,1675895804
86,tocopilla,-22.0887,-70.1961,297.8,75,58,3.21,America/Santiago,1675895805
87,presidencia roque saenz pena,-26.7909,-60.441,314.67,23,70,1.12,America/Argentina/Cordoba,1675895806
88,muisne,0.6104,-80.0186,301.44,80,17,3.16,America/Guayaquil,1675895808
89,chuy,-33.6938,-53.4561,304.72,79,100,4.28,America/Montevideo,1675895809
90,capitan bado,-23.2653,-55.5373,304.19,66,2,3.43,America/Asuncion,1675895810
91,kaitangata,-46.2817,169.8464,287.57,72,70,6.03,Pacific/Auckland,1675895812
92,sentyabrskiy,12.0,12.0,306.99,21,37,4.17,Africa/Lagos,1675895813
93,goshogawara,40.8076,140.4459,271.94,53,100,8.86,Asia/Tokyo,1675895814
94,batatais,-20.8929,-47.5921,301.18,91,5,1.02,America/Sao_Paulo,1675895815
95,shchelyayur,12.0,12.0,306.99,21,37,4.17,Africa/Lagos,1675895813
96,cidreira,-30.1657,-50.2183,300.74,82,1,7.97,America/Sao_Paulo,1675895817
97,ko samui,9.5014,99.9956,297.69,74,20,3.6,Asia/Bangkok,1675895819
98,avarua,-21.2075,-159.7708,302.14,74,42,5.66,Pacific/Rarotonga,1675895820
99,lady frere,-31.7028,27.2336,290.15,97,100,2.57,Africa/Johannesburg,1675895821
100,hokitika,-42.7179,170.9646,289.73,53,79,4.33,Pacific/Auckland,1675895822
101,georgetown,6.8137,-58.1624,301.14,74,20,4.12,America/Guyana,1675895824
102,ekibastuz,51.7276,75.3289,257.61,100,90,1.27,Asia/Almaty,1675895826
103,airai,-8.9266,125.4092,294.77,92,99,1.24,Asia/Dili,1675895828
104,guerrero negro,27.971,-114.0364,294.21,20,0,4.89,America/Mazatlan,1675895830
105,guadalupe y calvo,26.0915,-106.9617,288.77,11,0,3.52,America/Chihuahua,1675895831
106,palmer,61.5996,-149.1111,268.67,84,100,0.45,America/Anchorage,1675895833
107,jalu,29.0331,21.5482,294.81,45,98,5.45,Africa/Tripoli,1675895835
108,broome,-17.9567,122.224,303.34,84,40,4.12,Australia/Perth,1675895836
109,wilmington,39.7459,-75.5466,284.61,51,60,0.45,America/New_York,1675895838
110,taolanaro,12.0,12.0,306.99,21,37,4.17,Africa/Lagos,1675895813
111,bethel,60.7922,-161.7558,252.35,84,100,2.57,America/Anchorage,1675895841
112,hilo,19.7074,-155.0816,296.29,80,100,1.54,Pacific/Honolulu,1675895842
113,znamenskoye,43.6773,45.1288,269.52,94,100,2.79,Europe/Moscow,1675895844
114,port-gentil,-0.7149,8.7797,301.08,89,40,3.09,Africa/Libreville,1675895845
115,kapaa,22.0747,-159.3192,297.86,66,75,9.77,Pacific/Honolulu,1675895847
116,viedma,-40.8084,-62.9947,302.64,39,50,5.11,America/Argentina/Salta,1675895849
117,san carlos del zulia,9.0005,-71.9259,304.7,65,55,2.07,America/Caracas,1675895850
118,nome,64.5011,-165.4064,255.19,78,100,2.06,America/Nome,1675895852
119,torbay,47.6577,-52.727,272.72,96,100,8.75,America/St_Johns,1675895853
120,faanui,-16.4824,-151.7338,300.02,73,15,4.61,Pacific/Tahiti,1675895855
121,kirakira,-10.4569,161.9202,302.32,80,97,4.4,Pacific/Guadalcanal,1675895856
122,kytmanovo,53.4637,85.4503,258.75,100,95,0.74,Asia/Barnaul,1675895857
123,ixtapa,16.8033,-92.9054,302.93,32,3,1.67,America/Mexico_City,1675895858
124,kodiak,57.79,-152.4072,271.88,40,0,1.54,America/Anchorage,1675895860
125,dudinka,69.4061,86.1751,255.03,91,100,6.9,Asia/Krasnoyarsk,1675895861
126,bayir,30.762,36.6802,283.3,80,79,4.46,Asia/Amman,1675895862
127,ponta do sol,32.6811,-17.1041,289.92,55,34,3.17,Atlantic/Madeira,1675895863
128,arraial do cabo,-22.9663,-42.0244,299.14,83,75,1.54,America/Sao_Paulo,1675895864
129,xuddur,4.1237,43.8916,307.96,67,17,6.69,Africa/Mogadishu,1675895866
130,luderitz,-26.65,15.1573,296.19,97,17,5.96,Africa/Windhoek,1675895867
131,coihaique,-45.5712,-72.0685,296.64,70,88,3.69,America/Santiago,1675895868
132,palmeira das missoes,-27.9011,-53.3136,308.5,27,64,1.14,America/Sao_Paulo,1675895869
133,ivankiv,50.933,29.9043,271.11,93,38,1.94,Europe/Kiev,1675895870
134,vostok,-10.0621,-152.3126,300.76,71,11,7.13,Pacific/Kiritimati,1675895871
135,balkanabat,39.5116,54.354,278.62,78,100,2.45,Asia/Ashgabat,1675895872
136,bredasdorp,-34.5331,20.0428,299.28,81,3,6.23,Africa/Johannesburg,1675895874
137,mandalgovi,45.763,106.2704,267.75,94,87,1.44,Asia/Ulaanbaatar,1675895875
138,lavrentiya,65.5838,-171.0058,249.77,89,100,1.07,Asia/Anadyr,1675895876
139,sakaraha,-22.9119,44.5324,304.41,78,100,1.51,Indian/Antananarivo,1675895877
140,lompoc,34.6392,-120.4579,295.23,26,0,2.57,America/Los_Angeles,1675895881
141,cravo norte,6.2992,-70.2065,307.95,42,90,3.01,America/Bogota,1675895884
142,margate,51.3878,1.382,279.37,62,18,5.11,Europe/London,1675895885
143,mahebourg,-20.4111,57.7061,300.36,83,75,3.6,Indian/Mauritius,1675895887
144,nouakchott,18.0792,-15.978,298.23,33,100,5.64,Africa/Nouakchott,1675895889
145,san andres,12.5203,122.0117,299.69,78,100,5.62,Asia/Manila,1675895890
146,qaanaaq,77.4686,-69.2223,241.6,70,17,2.73,America/Thule,1675895891
147,kabare,-2.3896,28.7568,295.75,92,69,0.57,Africa/Lubumbashi,1675895893
148,leningradskiy,54.1291,79.2367,255.45,100,100,0.18,Asia/Novosibirsk,1675895894
149,oussouye,12.489,-16.5433,308.39,67,0,4.05,Africa/Dakar,1675895896
150,sitka,57.0525,-135.3376,277.05,70,40,4.12,America/Sitka,1675895898
151,louisbourg,45.9235,-59.9643,274.07,62,100,1.79,America/Glace_Bay,1675895899
152,namibe,-15.1951,12.1458,299.24,73,100,4.77,Africa/Luanda,1675895901
153,upernavik,72.7847,-56.147,243.16,75,11,2.82,America/Nuuk,1675895902
154,zaysan,47.4672,84.8719,265.85,90,100,0.74,Asia/Almaty,1675895903
155,illoqqortoormiut,70.4851,-21.9642,258.49,66,99,4.11,America/Scoresbysund,1675895905
156,port alfred,-33.5982,26.8915,295.23,96,100,1.44,Africa/Johannesburg,1675895907
157,oksfjord,70.2395,22.3505,281.56,66,100,11.49,Europe/Oslo,1675895908
158,front royal,38.9179,-78.1918,289.31,31,0,2.57,America/New_York,1675895910
159,palabuhanratu,-6.9882,106.5504,301.84,90,100,2.4,Asia/Jakarta,1675895911
160,bulgan,46.0941,91.5526,269.92,67,58,1.99,Asia/Hovd,1675895913
161,ballina,-28.8657,153.5659,297.98,99,83,3.76,Australia/Sydney,1675895914
162,severo-kurilsk,50.6683,156.1154,267.97,63,94,8.99,Asia/Srednekolymsk,1675895916
163,pochutla,17.6606,-98.8978,301.43,35,38,2.52,America/Mexico_City,1675895917
164,baryatino,54.3103,34.5191,270.91,96,100,3.21,Europe/Moscow,1675895918
165,geraldton,-28.7704,114.6147,301.32,88,0,4.63,Australia/Perth,1675895919
166,zhigansk,66.7656,123.3741,232.39,98,100,3.66,Asia/Yakutsk,1675895920
167,canoinhas,-26.1755,-50.395,303.97,65,41,1.28,America/Sao_Paulo,1675895922
168,bowmore,55.7569,-6.2884,282.23,62,87,8.92,Europe/London,1675895923
169,youkounkoun,12.5348,-13.1213,311.47,16,9,1.72,Africa/Conakry,1675895924
170,yulara,-25.241,130.9869,313.65,26,5,5.2,Australia/Darwin,1675895925
171,carnarvon,-24.8826,113.6576,304.07,70,43,7.42,Australia/Perth,1675895926
172,ancud,-41.8682,-73.8287,291.83,85,14,3.33,America/Santiago,1675895928
173,tsihombe,-25.3185,45.4841,303.61,82,100,2.02,Indian/Antananarivo,1675895929
174,klyuchi,56.3182,160.8422,260.99,96,100,2.01,Asia/Kamchatka,1675895930
175,lamu,-2.2675,40.9011,302.03,87,11,5.14,Africa/Nairobi,1675895931
176,sao joao da barra,-21.6349,-41.0487,299.22,93,100,3.19,America/Sao_Paulo,1675895932
177,metu,3.6716,31.787,309.63,27,36,0.58,Africa/Kampala,1675895934
178,iqaluit,63.7494,-68.5219,252.32,68,40,11.83,America/Iqaluit,1675895935
179,ullapool,57.8978,-5.1587,281.86,76,96,12.64,Europe/London,1675895936
180,hambantota,6.1249,81.1243,303.16,79,97,4.83,Asia/Colombo,1675895937
181,sibolga,1.737,98.7846,303.51,81,100,1.81,Asia/Jakarta,1675895938
182,kalino,43.4727,26.9804,268.69,97,90,4.63,Europe/Sofia,1675895940
183,san juan,18.4653,-66.1167,298.98,75,75,8.23,America/Puerto_Rico,1675895941
184,rorvik,64.8616,11.2379,278.91,65,75,5.14,Europe/Oslo,1675895942
185,moron,18.5602,-74.2581,302.71,75,42,1.49,America/Port-au-Prince,1675895944
186,ingham,-18.6476,146.1603,303.56,76,82,0.92,Australia/Brisbane,1675895946
187,mys shmidta,68.8929,-179.4131,246.04,96,100,4.58,Asia/Anadyr,1675895947
188,kahului,20.8894,-156.4727,299.58,57,20,9.77,Pacific/Honolulu,1675895949
189,petropavlovsk-kamchatskiy,53.02,158.6471,263.99,82,98,3.76,Asia/Kamchatka,1675895950
190,minab,27.1506,57.0753,296.63,78,90,1.03,Asia/Tehran,1675895952
191,raudeberg,61.9849,5.1378,281.03,100,100,7.92,Europe/Oslo,1675895954
192,luanda,-8.8273,13.244,300.76,78,0,3.09,Africa/Luanda,1675895956
193,tres passos,-27.4556,-53.9294,310.62,29,24,1.27,America/Sao_Paulo,1675895957
194,talnakh,69.494,88.3908,252.7,96,100,4.1,Asia/Krasnoyarsk,1675895959
195,koslan,63.4562,48.8942,272.99,93,52,4.2,Europe/Moscow,1675895961
196,freeport,42.2967,-89.6212,278.59,75,0,0.0,America/Chicago,1675895962
197,portland,45.5202,-122.6742,283.31,72,75,2.06,America/Los_Angeles,1675895965
198,leh,34.1642,77.5848,267.59,93,100,0.82,Asia/Kolkata,1675895967
199,arak,34.0865,49.6888,273.54,74,61,4.2,Asia/Tehran,1675895968
200,saint-joseph,49.5345,-1.5298,280.09,86,0,1.03,Europe/Paris,1675895970
201,coquimbo,-29.9532,-71.338,294.93,72,0,5.14,America/Santiago,1675895971
202,kununurra,-15.7731,128.7388,312.0,79,40,3.6,Australia/Perth,1675895973
203,hay river,60.8156,-115.7866,263.16,67,20,4.63,America/Yellowknife,1675895975
204,san patricio,27.9695,-97.7732,293.23,55,100,5.5,America/Chicago,1675895976
205,thompson,55.7433,-97.8635,265.31,79,100,4.12,America/Winnipeg,1675895977
206,toliary,12.0,12.0,306.99,21,37,4.17,Africa/Lagos,1675895978
207,tonota,-21.4378,27.4634,305.42,59,43,2.29,Africa/Gaborone,1675895980
208,marsa matruh,31.3529,27.2395,286.4,58,75,4.12,Africa/Cairo,1675895981
209,marystown,47.1658,-55.158,272.44,79,95,7.07,America/St_Johns,1675895982
210,ambodifototra,-16.9996,49.8526,300.68,79,61,2.16,Indian/Antananarivo,1675895983
211,hazorasp,41.3223,61.068,275.02,61,100,8.59,Asia/Samarkand,1675895985
212,lagoa,37.1326,-8.4551,287.54,83,15,3.34,Europe/Lisbon,1675895986
213,tura,47.39,0.6889,280.35,74,0,1.54,Europe/Paris,1675895990
214,buraydah,26.3317,43.9717,288.74,62,0,2.57,Asia/Riyadh,1675895992
215,dawlatabad,36.4204,64.8975,282.13,87,100,1.2,Asia/Kabul,1675895993
216,manoel urbano,-8.8388,-69.2619,301.06,98,82,1.76,America/Rio_Branco,1675895994
217,constitucion,-35.3318,-72.4119,295.6,67,17,6.15,America/Santiago,1675895995
218,belushya guba,71.5377,52.3427,273.77,92,100,4.42,Europe/Moscow,1675895997
219,lakatoro,-16.1068,167.4185,301.67,76,96,4.34,Pacific/Efate,1675895998
220,el cobre,-32.7518,-70.9654,306.95,39,0,3.41,America/Santiago,1675895999
221,westport,41.1415,-73.3579,281.57,53,0,2.57,America/New_York,1675896000
222,sao jose da coroa grande,-8.8894,-35.1515,301.87,77,94,3.13,America/Recife,1675896002
223,bathsheba,13.2129,-59.5227,299.68,73,40,7.72,America/Barbados,1675896004
224,srednekolymsk,67.4555,153.7071,240.44,97,100,2.99,Asia/Srednekolymsk,1675896006
225,dikson,73.5084,80.5124,257.7,79,100,5.93,Asia/Krasnoyarsk,1675896007
226,vermillion,42.7795,-96.9291,279.24,96,63,2.77,America/Chicago,1675896009
227,hastings,50.8554,0.5825,279.02,60,8,3.15,Europe/London,1675896011
228,bluff,-46.5988,168.3434,286.59,58,70,8.84,Pacific/Auckland,1675896013
229,victoria,48.4283,-123.365,280.72,76,75,6.26,America/Vancouver,1675896015
230,cruzeiro do sul,-29.514,-51.9917,312.18,46,46,3.4,America/Sao_Paulo,1675896016
231,grado,45.6781,13.3979,277.08,48,1,7.2,Europe/Rome,1675896018
232,deputatskiy,54.8408,61.127,268.09,93,100,5.18,Asia/Yekaterinburg,1675896023
233,matara,5.9478,80.5483,303.85,88,68,2.79,Asia/Colombo,1675896025
234,shenjiamen,29.9479,122.2798,284.58,82,100,7.77,Asia/Shanghai,1675896026
235,sola,37.5667,126.9783,280.51,77,0,2.06,Asia/Seoul,1675896028
236,alexandria,31.199,29.8944,287.02,56,67,5.89,Africa/Cairo,1675896034
237,lata,18.3983,76.5621,305.22,34,72,2.67,Asia/Kolkata,1675896035
238,parana,-31.733,-60.5299,314.26,21,34,1.28,America/Argentina/Cordoba,1675896037
239,le port,42.8663,1.374,279.4,64,45,2.22,Europe/Paris,1675896039
240,aden,12.7896,45.0285,298.86,71,20,0.98,Asia/Aden,1675896040
241,aklavik,68.2183,-135.0136,246.15,76,75,1.54,America/Inuvik,1675896041
242,marcona,-15.2155,-75.083,298.13,76,23,6.72,America/Lima,1675896042
243,port augusta,-32.4909,137.764,312.79,15,0,1.19,Australia/Adelaide,1675896044
244,sao miguel do araguaia,-13.2726,-50.1627,304.35,85,76,1.94,America/Sao_Paulo,1675896045
245,gualeguay,-33.1504,-59.3107,314.19,19,71,3.19,America/Argentina/Cordoba,1675896046
246,sinjar,35.5898,37.004,280.97,61,0,3.31,Asia/Damascus,1675896047
247,boromo,11.7448,-2.93,311.16,14,53,3.07,Africa/Ouagadougou,1675896048
248,port elizabeth,-33.9617,25.6208,294.78,82,75,1.03,Africa/Johannesburg,1675896050
249,alakurtti,66.964,30.3424,274.13,86,100,7.54,Europe/Moscow,1675896051
250,maputo,-25.9662,32.5675,300.3,96,100,3.05,Africa/Maputo,1675896052
251,egvekinot,66.3227,-179.1201,250.25,95,100,2.12,Asia/Anadyr,1675896053
252,andarab,37.8879,47.5172,269.04,87,100,2.93,Asia/Tehran,1675896054
253,shelburne,44.3783,-73.2276,279.5,49,20,2.06,America/New_York,1675896056
254,tyukhtet,56.5398,89.3115,260.08,97,98,1.62,Asia/Krasnoyarsk,1675896057
255,jiuquan,39.7321,98.4937,279.15,64,0,2.7,Asia/Shanghai,1675896058
256,sandpoint,48.2766,-116.5532,277.52,66,100,4.12,America/Los_Angeles,1675896059
257,norman wells,65.2824,-126.8327,252.52,76,75,0.0,America/Inuvik,1675896061
258,ozgon,40.7708,73.2978,277.72,67,96,0.91,Asia/Bishkek,1675896062
259,saint-philippe,45.3584,-73.479,276.2,68,100,6.17,America/Toronto,1675896064
260,tumannyy,12.0,12.0,306.99,21,37,4.17,Africa/Lagos,1675896066
261,ahipara,-35.1664,173.1562,294.27,61,17,4.94,Pacific/Auckland,1675896067
262,keuruu,62.258,24.7084,274.49,91,100,6.35,Europe/Helsinki,1675896069
263,sungaipenuh,12.0,12.0,306.99,21,37,4.17,Africa/Lagos,1675896066
264,irpa irpa,-17.7217,-66.2862,293.78,84,100,0.73,America/La_Paz,1675896072
265,hualmay,-11.0967,-77.6129,299.12,75,63,5.0,America/Lima,1675896073
266,harper,41.3625,-92.051,280.47,54,84,3.16,America/Chicago,1675896075
267,druzhba,52.0477,33.9429,270.77,95,65,2.97,Europe/Kiev,1675896077
268,benghazi,32.1061,20.0667,290.26,73,94,12.42,Africa/Tripoli,1675896079
269,banda aceh,5.5528,95.3193,302.49,81,98,2.47,Asia/Jakarta,1675896080
270,bambous virieux,-20.3472,57.7647,300.34,83,75,3.6,Indian/Mauritius,1675896082
271,filadelfia,39.9527,-75.1635,284.32,50,75,4.63,America/New_York,1675896084
272,saint george,12.0535,-61.7518,299.22,94,75,6.17,America/Grenada,1675896086
273,sur,33.2721,35.1964,284.39,56,67,1.87,Asia/Beirut,1675896088
274,nortelandia,-14.4519,-56.8044,305.94,97,97,1.5,America/Cuiaba,1675896090
275,tiksi,71.6366,128.8685,233.59,97,49,2.51,Asia/Yakutsk,1675896092
276,port lincoln,-34.7212,135.8592,301.8,61,0,5.49,Australia/Adelaide,1675896093
277,miles city,46.4085,-105.841,279.69,49,0,8.75,America/Denver,1675896095
278,vanimo,-2.6848,141.3009,299.08,92,100,7.75,Pacific/Port_Moresby,1675896097
279,lodja,-3.5242,23.5995,307.42,97,100,1.08,Africa/Lubumbashi,1675896098
280,tasiilaq,65.6153,-37.6378,258.43,52,1,4.26,America/Nuuk,1675896099
281,rondonopolis,-16.4604,-54.6397,304.52,87,53,1.41,America/Cuiaba,1675896101
282,nabire,-3.3603,135.5024,299.7,89,100,1.43,Asia/Jayapura,1675896102
283,yakeshi,49.3212,121.2781,262.79,100,91,1.7,Asia/Shanghai,1675896103
284,manta,44.6159,7.487,276.83,64,75,0.51,Europe/Rome,1675896104
285,alta floresta,-9.8699,-56.0835,301.6,92,91,0.35,America/Cuiaba,1675896105
286,labuhan,-6.892,112.9897,301.48,86,100,3.93,Asia/Jakarta,1675896107
287,ostrovnoy,68.0544,39.5129,274.84,82,100,17.09,Europe/Moscow,1675896108
288,barrow,71.2906,-156.7886,251.16,71,100,3.09,America/Anchorage,1675896109
289,eirunepe,-6.6568,-69.8662,297.96,99,100,0.58,America/Eirunepe,1675896111
290,sorvag,68.0369,15.3885,279.9,95,100,10.5,Europe/Oslo,1675896112
291,lindi,-9.9989,39.7137,300.91,97,100,0.99,Africa/Dar_es_Salaam,1675896113
292,valle de allende,26.9369,-105.393,288.02,15,0,2.57,America/Chihuahua,1675896114
293,fortuna,40.5974,-124.156,286.39,82,0,4.12,America/Los_Angeles,1675896115
294,bolungarvik,66.1576,-23.2507,269.28,92,73,13.45,Atlantic/Reykjavik,1675896117
295,pangnirtung,66.148,-65.7173,247.29,53,0,1.03,America/Pangnirtung,1675896118
296,qaqortoq,60.7182,-46.0385,269.65,94,100,3.15,America/Nuuk,1675896119
297,half moon bay,52.3472,-114.1766,272.86,90,21,1.96,America/Edmonton,1675896121
298,sakakah,29.9784,40.2048,285.03,67,10,3.16,Asia/Riyadh,1675896123
299,vrede,-27.4265,29.1637,293.84,97,95,3.16,Africa/Johannesburg,1675896125
300,nguiu,-11.7626,130.6321,303.81,88,100,3.65,Australia/Darwin,1675896126
301,abu kamal,34.4506,40.9171,283.02,53,1,5.27,Asia/Damascus,1675896128
302,mogok,22.9228,96.5055,297.68,50,0,0.85,Asia/Yangon,1675896130
303,wageningen,51.9686,5.6683,279.72,61,75,3.09,Europe/Amsterdam,1675896131
304,flinders,-20.8629,144.2526,304.88,69,80,7.23,Australia/Brisbane,1675896133
305,ust-tsilma,65.4387,52.1562,273.0,83,100,5.28,Europe/Moscow,1675896135
306,college,45.3266,-75.8386,278.07,56,20,3.09,America/Toronto,1675896136
307,khani,56.914,119.9542,257.89,81,84,2.39,Asia/Yakutsk,1675896138
308,rio gallegos,-51.6461,-69.2632,298.59,29,75,13.89,America/Argentina/Rio_Gallegos,1675896140
309,los llanos de aridane,28.6592,-17.9152,288.3,73,100,3.09,Atlantic/Canary,1675896141
310,pangody,65.8566,74.4948,259.82,95,99,6.72,Asia/Yekaterinburg,1675896144
311,longyearbyen,78.2232,15.6464,271.37,93,100,5.14,Arctic/Longyearbyen,1675896145
312,padang,-0.9248,100.3633,302.58,100,40,0.51,Asia/Jakarta,1675896148
313,vaitupu,-7.4769,178.6808,301.54,73,94,8.76,Pacific/Funafuti,1675896150
314,grindavik,63.8442,-22.4317,272.08,50,40,14.4,Atlantic/Reykjavik,1675896152
315,pisco,-13.71,-76.203,300.91,69,0,11.32,America/Lima,1675896153
316,reforma,17.8581,-93.1556,304.67,78,0,2.14,America/Mexico_City,1675896155
317,kudahuvadhoo,2.6705,72.8906,300.67,70,83,2.22,Indian/Maldives,1675896156
318,quatre cocos,-20.2095,57.7706,300.25,82,25,5.1,Indian/Mauritius,1675896157
319,george town,5.4142,100.3287,301.67,94,20,1.03,Asia/Kuala_Lumpur,1675896159
320,klaksvik,62.2266,-6.5853,281.09,66,94,16.22,Atlantic/Faroe,1675896160
321,west wendover,40.7427,-114.0721,279.64,45,0,7.2,America/Denver,1675896161
322,mogzon,51.7412,111.971,263.65,100,94,0.43,Asia/Chita,1675896162
323,sfantu gheorghe,45.866,25.7865,270.15,98,60,1.11,Europe/Bucharest,1675896163
324,placido de castro,-10.3239,-67.1824,305.44,88,63,1.06,America/Rio_Branco,1675896165
325,changping,40.2196,116.2251,274.74,47,100,1.32,Asia/Shanghai,1675896166
326,samusu,-13.9974,-171.4289,301.14,80,91,6.66,Pacific/Apia,1675896167
327,lasa,50.4292,2.832,280.21,67,4,2.87,Europe/Paris,1675896168
328,stettler,52.3229,-112.713,272.01,74,60,3.6,America/Edmonton,1675896170
329,henties bay,-22.113,14.2882,293.3,89,49,1.88,Africa/Windhoek,1675896171
330,piacabucu,-10.4067,-36.4337,302.64,77,100,3.44,America/Maceio,1675896172
331,loukhi,66.0761,33.0419,274.47,86,100,8.11,Europe/Moscow,1675896173
332,narsaq,60.9127,-46.0453,266.38,95,100,3.68,America/Nuuk,1675896174
333,talaya,55.787,84.8935,257.6,98,99,1.63,Asia/Novokuznetsk,1675896176
334,hasaki,35.753,140.8201,282.09,47,24,9.07,Asia/Tokyo,1675896177
335,spirit river,55.7775,-118.8376,273.79,64,7,7.14,America/Edmonton,1675896178
336,fuxin,42.0152,121.6453,273.68,33,100,1.3,Asia/Shanghai,1675896179
337,morro bay,35.3658,-120.8499,293.14,44,1,2.68,America/Los_Angeles,1675896181
338,aykhal,65.9516,111.4918,244.54,100,85,2.42,Asia/Yakutsk,1675896182
339,oranjestad,12.5269,-70.0357,299.8,80,20,9.77,America/Aruba,1675896184
340,dagshai,12.0,12.0,306.99,21,37,4.17,Africa/Lagos,1675896185
341,gat,45.7023,18.3247,275.16,74,2,2.83,Europe/Zagreb,1675896186
342,yangambi,0.7658,24.4734,311.02,69,51,0.7,Africa/Lubumbashi,1675896188
343,morros,-2.8652,-44.039,301.46,92,100,2.25,America/Fortaleza,1675896189
344,bor,56.3598,44.0543,269.43,97,100,2.01,Europe/Moscow,1675896190
345,kyra,35.2032,33.0605,282.67,52,0,1.75,Asia/Famagusta,1675896191
346,manoharpur,27.2984,75.9518,299.7,35,1,0.4,Asia/Kolkata,1675896193
347,burica,8.0637,-82.9127,300.92,75,6,5.0,America/Costa_Rica,1675896194
348,los palacios,22.5854,-83.2481,302.41,67,6,3.64,America/Havana,1675896195
349,isla mujeres,21.2321,-86.7322,299.22,84,5,7.59,America/Cancun,1675896196
350,kota belud,6.3498,116.4293,304.41,82,88,1.96,Asia/Kuching,1675896197
351,grand gaube,-20.0086,57.6644,300.04,77,14,1.79,Indian/Mauritius,1675896199
352,saint-louis,38.632,-90.2429,280.99,92,100,3.09,America/Chicago,1675896200
353,umzimvubu,-30.8249,28.9218,288.59,98,100,1.14,Africa/Johannesburg,1675896204
354,caravelas,-17.7297,-39.266,304.97,80,23,3.58,America/Bahia,1675896206
355,corrente,-10.4401,-45.1627,304.69,66,58,1.97,America/Fortaleza,1675896207
356,miracema do tocantins,-9.5618,-48.3967,303.66,89,58,0.88,America/Araguaina,1675896208
357,shingu,33.7241,135.993,284.84,66,7,2.88,Asia/Tokyo,1675896209
358,limbang,4.7534,115.0093,305.03,97,78,0.9,Asia/Kuching,1675896211
359,souillac,44.898,1.4694,282.59,91,36,1.39,Europe/Paris,1675896212
360,okhotsk,59.3644,143.2411,247.88,84,35,5.61,Asia/Vladivostok,1675896213
361,manavalakurichi,12.0,12.0,306.99,21,37,4.17,Africa/Lagos,1675896185
362,alofi,-19.0534,-169.9192,303.43,66,75,4.12,Pacific/Niue,1675896215
363,hilton head island,32.1618,-80.7513,290.88,75,0,3.09,America/New_York,1675896217
364,berlevag,70.799,29.1505,275.12,65,0,20.06,Europe/Oslo,1675896218
365,lolua,12.0,12.0,306.99,21,37,4.17,Africa/Lagos,1675896185
366,clyde river,46.2239,-63.2577,273.42,74,75,3.09,America/Halifax,1675896220
367,almaznyy,48.0302,40.0396,268.41,95,9,3.19,Europe/Moscow,1675896221
368,zhangye,38.9365,100.4556,280.47,53,1,2.86,Asia/Shanghai,1675896224
369,port keats,-14.2413,129.5209,306.13,75,100,5.3,Australia/Darwin,1675896226
370,anadyr,64.7317,177.5061,238.08,68,0,5.0,Asia/Anadyr,1675896227
371,sinop,42.0266,35.1512,277.53,81,100,5.86,Europe/Istanbul,1675896228
372,tessalit,20.202,1.0125,303.41,19,3,4.97,Africa/Bamako,1675896229
373,lomovka,53.9187,58.3679,268.6,92,100,2.73,Asia/Yekaterinburg,1675896230
374,fevralsk,52.4571,130.8528,251.62,100,83,1.54,Asia/Yakutsk,1675896231
375,kenai,60.5544,-151.2583,268.46,79,100,1.54,America/Anchorage,1675896232
376,sao miguel do oeste,-26.7279,-53.5177,308.52,38,28,1.98,America/Sao_Paulo,1675896234
377,nizhneyansk,71.4404,136.1306,235.28,99,99,2.32,Asia/Vladivostok,1675896235
378,kimbe,-5.5563,150.153,298.88,97,100,1.77,Pacific/Port_Moresby,1675896236
379,bengkulu,-3.7923,102.2624,302.03,82,94,1.73,Asia/Jakarta,1675896237
380,marsabit,2.3381,37.9916,302.2,40,21,3.24,Africa/Nairobi,1675896245
381,wa,10.0623,-2.5054,309.84,35,90,0.93,Africa/Accra,1675896246
382,samarai,-10.6106,150.6619,300.22,88,100,5.87,Pacific/Port_Moresby,1675896247
383,kloulklubed,7.0415,134.2565,300.97,73,100,4.87,Pacific/Palau,1675896249
384,mayo,45.6634,-75.3458,275.28,93,92,1.89,America/Toronto,1675896250
385,traverse city,44.7606,-85.6165,282.07,43,75,2.57,America/Detroit,1675896251
386,peniche,39.3566,-9.3813,285.4,85,83,9.56,Europe/Lisbon,1675896252
387,boone,42.0597,-93.8802,279.41,74,0,2.57,America/Chicago,1675896254
388,pemangkat,1.1561,108.9713,299.89,91,37,1.33,Asia/Pontianak,1675896256
389,molodiya,48.2242,26.0253,270.13,96,8,1.08,Europe/Kiev,1675896257
390,tabou,4.4194,-7.3604,301.71,86,91,1.81,Africa/Abidjan,1675896258
391,beaverlodge,55.2106,-119.4287,275.79,65,35,8.37,America/Edmonton,1675896260
392,baijiantan,45.6342,85.2608,267.21,97,93,0.95,Asia/Shanghai,1675896261
393,naryan-mar,12.0,12.0,306.99,21,37,4.17,Africa/Lagos,1675896263
394,zyryanovsk,12.0,12.0,306.99,21,37,4.17,Africa/Lagos,1675896263
395,vanderhoof,54.0175,-124.0077,274.73,80,80,1.83,America/Vancouver,1675896265
396,kruisfontein,-34.012,24.7433,298.41,81,100,1.83,Africa/Johannesburg,1675896266
397,yerbogachen,61.275,108.0097,258.15,98,100,2.24,Asia/Irkutsk,1675896267
398,conceicao do araguaia,-8.2697,-49.2677,302.13,91,57,0.75,America/Belem,1675896269
399,catamarca,-28.4689,-65.7791,310.92,30,37,2.24,America/Argentina/Catamarca,1675896270
400,nara,34.6845,135.8048,281.61,70,19,2.44,Asia/Tokyo,1675896272
401,biltine,14.5252,20.9287,305.47,9,100,6.45,Africa/Ndjamena,1675896273
402,meulaboh,4.1482,96.1339,302.82,88,100,1.84,Asia/Jakarta,1675896274
403,mount isa,-20.729,139.4932,305.33,89,40,2.06,Australia/Brisbane,1675896275
404,makakilo city,21.3469,-158.0858,298.04,53,0,7.72,Pacific/Honolulu,1675896276
405,boden,65.8333,21.6667,275.39,86,100,5.82,Europe/Stockholm,1675896278
406,kargasok,59.0598,80.8709,258.62,99,78,2.3,Asia/Tomsk,1675896279
407,khromtau,50.2569,58.4353,261.84,97,12,4.03,Asia/Aqtobe,1675896283
408,camacha,32.6794,-16.8449,285.45,84,75,2.57,Atlantic/Madeira,1675896284
409,pacifica,37.6138,-122.4869,289.2,67,20,2.06,America/Los_Angeles,1675896285
410,smithers,54.7792,-127.1761,273.34,80,75,1.03,America/Vancouver,1675896286
411,turayf,31.6726,38.6616,280.16,81,40,5.14,Asia/Riyadh,1675896287
412,sanchursk,56.9404,47.2527,269.68,96,100,2.76,Europe/Kirov,1675896288
413,coari,-4.0886,-63.1431,302.99,96,82,1.77,America/Manaus,1675896290
414,puerto escondido,15.8693,-97.0726,303.19,62,0,3.09,America/Mexico_City,1675896291
415,cayenne,4.9371,-52.3258,299.45,94,75,4.12,America/Cayenne,1675896292
416,muchkapskiy,51.8507,42.4824,267.97,97,75,2.35,Europe/Moscow,1675896294
417,olga,45.107,7.2736,276.26,68,87,0.38,Europe/Rome,1675896295
418,ugra,54.7813,34.3186,272.03,95,100,2.46,Europe/Moscow,1675896296
419,the valley,18.2146,-63.0518,299.13,73,40,7.2,America/Anguilla,1675896297
420,maloy,40.6747,-94.4119,281.01,48,99,0.89,America/Chicago,1675896303
421,formoso do araguaia,-11.806,-49.5257,304.84,80,71,0.41,America/Araguaina,1675896305
422,pokhara,28.2095,83.9914,295.06,50,54,1.91,Asia/Kathmandu,1675896306
423,nemuro,43.3301,145.5829,268.14,77,50,6.61,Asia/Tokyo,1675896308
424,ginda,47.1353,24.5737,269.89,90,7,1.78,Europe/Bucharest,1675896309
425,dolbeau,46.7464,-1.7985,281.93,70,0,2.3,Europe/Paris,1675896310
426,zabid,14.1951,43.3152,303.03,84,7,3.13,Asia/Aden,1675896312
427,seoul,37.5667,126.9783,280.51,77,0,2.06,Asia/Seoul,1675896313
428,stip,41.7375,22.1936,275.17,60,0,1.41,Europe/Skopje,1675896314
429,bossier city,32.5369,-93.6953,295.09,77,100,12.35,America/Chicago,1675896316
430,dunedin,-45.8741,170.5036,287.45,73,53,7.55,Pacific/Auckland,1675896317
431,ponta delgada,37.7394,-25.6684,287.81,62,75,2.06,Atlantic/Azores,1675896318
432,comodoro rivadavia,-45.8632,-67.4753,307.4,17,0,5.66,America/Argentina/Catamarca,1675896319
433,kirksville,40.1949,-92.5834,280.36,48,100,3.09,America/Chicago,1675896320
434,watsa,3.0399,29.5328,307.24,34,30,0.12,Africa/Lubumbashi,1675896322
435,bilma,18.6929,12.9187,301.92,17,12,3.31,Africa/Niamey,1675896323
436,sukumo,32.9391,132.7263,285.71,71,79,1.64,Asia/Tokyo,1675896324
437,vila franca do campo,37.7172,-25.4335,287.37,69,86,4.36,Atlantic/Azores,1675896325
438,nuuk,64.175,-51.7355,269.99,73,100,8.05,America/Nuuk,1675896326
439,tairua,-36.9999,175.8502,294.6,52,6,5.75,Pacific/Auckland,1675896327
440,pariquera-acu,-24.7147,-47.8802,305.58,85,49,1.14,America/Sao_Paulo,1675896329
441,qidong,26.8007,112.0848,284.88,96,98,1.46,Asia/Shanghai,1675896330
442,spirovo,57.4215,34.9933,273.11,96,100,2.34,Europe/Moscow,1675896332
443,ternate,45.7823,8.6903,277.79,60,75,3.09,Europe/Rome,1675896333
444,baena,37.6173,-4.3244,286.86,79,43,0.86,Europe/Madrid,1675896334
445,mahadday weyne,12.0,12.0,306.99,21,37,4.17,Africa/Lagos,1675896335
446,ulaangom,49.98,92.0689,252.92,91,100,1.18,Asia/Hovd,1675896337
447,ulladulla,-35.3622,150.4752,294.63,92,100,5.37,Australia/Sydney,1675896339
448,magrath,49.4203,-112.8637,276.3,60,99,5.66,America/Edmonton,1675896340
449,belyy,55.8331,32.9395,271.78,97,99,2.38,Europe/Moscow,1675896341
450,khomutovka,51.9214,34.5555,270.58,94,52,3.11,Europe/Moscow,1675896342
451,kisangani,0.5184,25.2057,311.47,79,31,0.39,Africa/Lubumbashi,1675896344
452,auki,-8.7706,160.6993,303.19,69,95,1.8,Pacific/Guadalcanal,1675896345
453,taoudenni,22.6762,-3.9805,299.22,16,98,4.36,Africa/Bamako,1675896346
454,saleaula,12.0,12.0,306.99,21,37,4.17,Africa/Lagos,1675896335
455,ambon,47.5542,-2.5567,281.54,76,0,2.27,Europe/Paris,1675896348
456,lumeje,-11.5599,20.778,295.86,88,67,2.18,Africa/Luanda,1675896349
457,mangan,-5.7922,134.7735,299.03,88,100,6.47,Asia/Jayapura,1675896350
458,kieta,42.9998,141.4437,267.36,44,75,8.75,Asia/Tokyo,1675896352
459,havre,48.5537,-109.6778,277.75,80,100,9.77,America/Denver,1675896353
460,bud,50.8285,-4.5469,281.6,83,97,1.34,Europe/London,1675896354
461,aksu,54.8464,50.8055,268.66,96,100,3.91,Europe/Moscow,1675896355
462,dakar,14.6934,-17.4479,294.33,77,0,4.12,Africa/Dakar,1675896356
463,uyemskiy,12.0,12.0,306.99,21,37,4.17,Africa/Lagos,1675896335
464,caruray,10.3164,119.0051,302.33,85,100,4.33,Asia/Manila,1675896359
465,pierre,44.3684,-100.3511,283.66,46,20,0.0,America/Chicago,1675896361
466,kabanjahe,3.1009,98.4891,298.65,95,100,0.42,Asia/Jakarta,1675896362
467,riohacha,11.5352,-72.912,304.16,45,20,6.69,America/Bogota,1675896363
468,korla,41.7239,86.1735,274.76,68,42,1.56,Asia/Shanghai,1675896365
469,timra,62.4922,17.2995,277.92,65,100,6.17,Europe/Stockholm,1675896366
470,irondequoit,43.2134,-77.5797,278.12,66,75,5.14,America/New_York,1675896367
471,kiruna,68.1667,19.5,274.28,58,100,14.81,Europe/Stockholm,1675896369
472,binga,0.7928,103.835,300.75,82,100,4.71,Asia/Jakarta,1675896370
473,north las vegas,36.2006,-115.1216,291.67,23,0,2.06,America/Los_Angeles,1675896371
474,mackenzie,38.581,-90.3164,281.13,92,100,3.09,America/Chicago,1675896372
475,whitehorse,60.7216,-135.0549,269.13,69,20,8.23,America/Whitehorse,1675896374
476,vigia del fuerte,6.5896,-76.8962,304.62,92,83,0.76,America/Bogota,1675896375
477,sun city west,33.662,-112.3413,292.93,20,20,3.6,America/Phoenix,1675896376
478,avera,43.3896,-0.1768,282.01,86,0,1.54,Europe/Paris,1675896377
479,trincomalee,8.5764,81.2345,300.13,78,95,4.54,Asia/Colombo,1675896379
480,ocos,14.5104,-92.1943,301.97,61,0,5.87,America/Guatemala,1675896380
481,meyungs,12.0,12.0,306.99,21,37,4.17,Africa/Lagos,1675896335
482,terrace bay,48.7824,-87.1024,272.28,87,94,2.09,America/Nipigon,1675896382
483,puerto berrio,6.4899,-74.4021,308.9,59,44,0.45,America/Bogota,1675896383
484,asekeyevo,12.0,12.0,306.99,21,37,4.17,Africa/Lagos,1675896335
485,barentu,15.1057,37.5889,303.41,66,29,1.55,Africa/Asmara,1675896385
486,atchison,39.5632,-95.1199,281.18,86,100,2.91,America/Chicago,1675896388
487,huanren,41.2681,125.3487,271.44,77,100,0.77,Asia/Shanghai,1675896389
488,ketchikan,55.3431,-131.6467,277.54,87,100,5.14,America/Sitka,1675896390
489,kerman,30.2924,57.0646,284.56,36,0,8.23,Asia/Tehran,1675896391
490,svetlyy,64.042,42.6973,273.73,95,96,4.66,Europe/Moscow,1675896393
491,high rock,41.3059,-72.1567,280.23,53,9,3.39,America/New_York,1675896394
492,bubaque,11.2997,-15.8335,299.17,71,5,7.05,Africa/Bissau,1675896397
493,moroni,-11.6931,43.2543,301.41,79,99,1.69,Indian/Comoro,1675896398
494,resistencia,-27.4511,-58.9865,315.21,26,0,2.57,America/Argentina/Cordoba,1675896399
495,bafq,31.5997,55.3967,288.12,39,0,2.06,Asia/Tehran,1675896400
496,voi,-3.3977,38.5843,306.21,90,64,1.53,Africa/Nairobi,1675896401
497,aporawan,9.5935,118.3382,302.86,88,90,2.55,Asia/Manila,1675896402
498,komsomolskiy,43.9827,46.695,268.71,96,100,2.99,Europe/Moscow,1675896405
499,camana,-11.9873,-73.1218,300.61,96,89,0.67,America/Lima,1675896414
500,port hedland,-20.3112,118.5801,305.59,89,2,1.54,Australia/Perth,1675896416
501,hami,42.8174,93.5142,278.91,55,7,3.21,Asia/Shanghai,1675896417
502,mergui,12.432,98.5956,303.28,76,2,1.64,Asia/Yangon,1675896418
503,matay,6.773,-9.6419,306.83,97,89,1.46,Africa/Monrovia,1675896419
504,uvinza,-5.1027,30.3879,298.68,94,100,0.71,Africa/Dar_es_Salaam,1675896420
505,faya,17.9209,19.0953,300.7,13,41,6.47,Africa/Ndjamena,1675896422
506,mentok,0.9093,123.1922,301.05,80,97,0.44,Asia/Makassar,1675896423
507,gamba,28.2764,88.5165,277.94,67,0,2.1,Asia/Shanghai,1675896424
508,meadow lake,54.1303,-108.4351,268.91,68,20,3.6,America/Swift_Current,1675896425
509,grand river south east,-20.2907,57.7852,300.36,83,75,3.6,Indian/Mauritius,1675896427
510,murray bridge,-35.1309,139.2652,305.22,48,2,1.65,Australia/Adelaide,1675896428
511,gushikawa,26.3589,127.8676,293.78,77,100,4.63,Asia/Tokyo,1675896429
512,pine bluff,34.2157,-92.014,296.28,68,75,8.23,America/Chicago,1675896431
513,karaul,58.2762,48.3068,270.47,100,95,1.28,Europe/Kirov,1675896432
514,ouango,4.3119,22.5524,312.77,26,5,1.96,Africa/Bangui,1675896433
515,sataua,-13.5176,-172.693,301.16,80,98,6.86,Pacific/Apia,1675896434
516,brae,60.3963,-1.3537,281.85,69,87,14.1,Europe/London,1675896436
517,blythe,33.6135,-114.5938,294.4,18,0,1.54,America/Los_Angeles,1675896437
518,north platte,41.1239,-100.7654,277.93,74,0,5.81,America/Chicago,1675896438
519,trinidad,10.443,-61.2613,302.38,74,20,6.17,America/Port_of_Spain,1675896439
520,mitchell,43.7095,-98.0254,276.14,70,0,3.6,America/Chicago,1675896441
521,miraflores,-12.1215,-77.0259,297.84,73,20,4.12,America/Lima,1675896442
522,umm lajj,16.5605,43.89,298.66,71,51,0.92,Asia/Aden,1675896443
523,pahrump,36.2083,-115.9839,291.03,24,2,0.89,America/Los_Angeles,1675896444
524,dinguiraye,11.2924,-10.7145,309.53,16,1,0.57,Africa/Conakry,1675896445
525,vestmannaeyjar,63.427,-20.2693,272.65,57,100,15.86,Atlantic/Reykjavik,1675896447
526,rawatsar,29.2631,74.4016,302.36,32,67,3.4,Asia/Kolkata,1675896448
527,hollola,60.9883,25.5153,274.38,88,100,5.25,Europe/Helsinki,1675896449
528,puerto leguizamo,-0.195,-74.7807,303.89,62,69,1.16,America/Bogota,1675896450
529,urengoy,65.9623,78.3719,258.02,94,100,7.34,Asia/Yekaterinburg,1675896452
530,ongandjera,12.0,12.0,306.99,21,37,4.17,Africa/Lagos,1675896453
531,provideniya,64.4237,-173.2274,252.46,59,100,4.0,Asia/Anadyr,1675896454
532,chapais,49.783,-74.8573,267.83,98,100,1.33,America/Toronto,1675896456
533,solnechnyy,50.7238,136.6401,253.99,97,84,1.36,Asia/Vladivostok,1675896457
534,disraeli,45.9049,-71.3596,272.97,94,69,2.66,America/Toronto,1675896458
535,churapcha,61.9997,132.4252,239.03,100,99,1.0,Asia/Yakutsk,1675896459
536,paucartambo,-13.3176,-71.596,290.26,91,93,1.99,America/Lima,1675896460
537,dekalb,41.9295,-88.7504,277.06,81,0,2.06,America/Chicago,1675896462
538,byron bay,-28.6483,153.6178,297.95,70,66,3.74,Australia/Sydney,1675896463
539,muros,40.6781,8.6173,281.44,95,46,2.59,Europe/Rome,1675896464
540,tongchuan,34.8973,108.9404,279.62,99,100,1.55,Asia/Shanghai,1675896465
541,mokolo,10.741,13.7987,304.43,18,42,2.6,Africa/Douala,1675896466
542,orbetello,42.4381,11.2107,282.27,67,42,4.18,Europe/Rome,1675896468
543,pyapon,16.1701,95.5452,305.94,68,9,2.71,Asia/Yangon,1675896469
544,rawlins,41.7908,-107.2392,271.09,64,20,12.35,America/Denver,1675896470
545,binzhou,37.3821,117.9647,282.28,54,100,3.71,Asia/Shanghai,1675896471
546,colares,-0.9364,-48.2803,300.31,90,100,3.97,America/Belem,1675896472
547,birao,10.2962,22.781,306.73,14,8,3.21,Africa/Bangui,1675896473
548,chulman,56.8404,124.9047,251.14,99,100,0.97,Asia/Yakutsk,1675896475
549,fort saint john,12.0,12.0,306.99,21,37,4.17,Africa/Lagos,1675896453
550,armacao dos buzios,-22.7598,-41.8875,299.18,92,100,3.37,America/Sao_Paulo,1675896477
551,glenwood springs,39.5507,-107.3255,276.76,54,100,6.17,America/Denver,1675896478
552,baruun-urt,46.6809,113.2835,264.98,89,100,3.23,Asia/Choibalsan,1675896479
553,araouane,18.9042,-3.5265,303.29,18,4,5.45,Africa/Bamako,1675896480
554,koshurnikovo,54.3006,93.3948,266.44,97,100,0.63,Asia/Krasnoyarsk,1675896482
555,taltal,-25.4078,-70.4858,296.28,76,22,2.6,America/Santiago,1675896484
556,fergus falls,46.283,-96.0776,275.1,75,0,3.09,America/Chicago,1675896486
557,dingle,11.0001,122.6718,301.34,90,100,3.57,Asia/Manila,1675896488
558,havre-saint-pierre,50.2464,-63.6004,269.57,86,75,4.12,America/Toronto,1675896489
559,asfi,32.2994,-9.2395,289.08,83,26,3.37,Africa/Casablanca,1675896491
560,jiaojiang,28.6758,121.4386,284.78,94,100,2.0,Asia/Shanghai,1675896492
561,aksarka,66.5582,67.8052,268.15,80,98,5.15,Asia/Yekaterinburg,1675896498
562,goderich,43.7431,-81.7111,277.1,70,84,4.12,America/Nipigon,1675896501
563,mitsamiouli,-11.3889,43.293,301.24,80,99,2.59,Indian/Comoro,1675896502
564,majene,-3.5459,118.9607,303.75,74,100,3.37,Asia/Makassar,1675896504
565,jistebnice,49.4855,14.5276,270.37,74,0,8.26,Europe/Prague,1675896505
566,beira,-19.8287,34.8418,304.21,92,100,1.96,Africa/Maputo,1675896507
567,ibirama,-27.0537,-49.5191,308.21,92,36,2.9,America/Sao_Paulo,1675896508
568,bilibino,68.055,166.4449,234.12,99,80,0.87,Asia/Anadyr,1675896510
569,stolin,51.8896,26.8496,272.48,87,77,2.25,Europe/Minsk,1675896512
570,gaoual,11.7541,-13.2003,312.95,36,12,1.52,Africa/Conakry,1675896514
571,antofagasta,-23.6464,-70.398,297.81,79,38,2.5,America/Santiago,1675896516
572,touros,-5.1999,-35.4595,303.7,78,52,6.29,America/Fortaleza,1675896517
573,clifton,40.8584,-74.1638,282.78,43,0,5.66,America/New_York,1675896518
574,ciudad bolivar,8.1029,-63.547,305.65,52,98,4.89,America/Caracas,1675896519
575,kindu,-2.9494,25.9184,307.75,98,81,2.99,Africa/Lubumbashi,1675896520
576,outjo,-20.1123,16.1617,304.26,80,92,5.47,Africa/Windhoek,1675896526
577,vestmanna,62.156,-7.166,281.1,69,75,5.66,Atlantic/Faroe,1675896527
578,rangapara,26.8178,92.6862,298.52,73,75,2.18,Asia/Kolkata,1675896528
579,bagdarin,54.4434,113.5905,261.84,96,95,1.38,Asia/Irkutsk,1675896529
580,pitimbu,-7.4728,-34.8112,301.55,79,100,5.13,America/Fortaleza,1675896531
581,sioux falls,43.5488,-96.7308,277.16,72,20,4.63,America/Chicago,1675896532
582,iglesias,42.2976,-3.9892,279.93,90,7,3.46,Europe/Madrid,1675896533
583,codrington,51.5082,-2.3937,280.46,84,88,0.45,Europe/London,1675896534
584,nyanza,46.0944,-60.869,274.1,84,97,4.7,America/Glace_Bay,1675896535
585,florianopolis,-27.5973,-48.5496,302.61,82,75,3.6,America/Sao_Paulo,1675896537
586,ngukurr,-14.7341,134.7323,309.22,58,72,3.5,Australia/Darwin,1675896538
587,kandrian,-6.2074,149.5476,300.48,86,99,7.08,Pacific/Port_Moresby,1675896539
588,wanning,18.7961,110.3873,299.78,88,30,1.41,Asia/Shanghai,1675896540
589,naze,5.452,7.0567,312.22,74,41,3.03,Africa/Lagos,1675896541
590,rentina,39.0631,21.9787,271.03,92,93,1.46,Europe/Athens,1675896543
591,upata,8.0073,-62.3978,303.2,69,96,2.57,America/Caracas,1675896544
592,morondava,-20.2951,44.2786,302.41,91,98,3.19,Indian/Antananarivo,1675896546
593,shibetsu,44.1785,142.4002,266.36,87,90,4.53,Asia/Tokyo,1675896548
594,sumedang,-6.8592,107.9207,299.75,90,100,1.43,Asia/Jakarta,1675896554
595,svetlogorsk,54.9418,20.1551,274.75,80,96,9.35,Europe/Kaliningrad,1675896556
596,eyl,7.9807,49.8188,302.38,86,16,4.5,Africa/Mogadishu,1675896558
597,uray,60.1291,64.8036,271.07,95,75,3.36,Asia/Yekaterinburg,1675896560
598,quepos,9.4319,-84.1621,303.71,70,15,1.81,America/Costa_Rica,1675896561
599,lokosovo,61.1318,74.8396,261.48,95,100,4.76,Asia/Yekaterinburg,1675896563
600,jiangyou,31.9525,104.9347,284.5,84,100,1.01,Asia/Shanghai,1675896565
601,simpang,4.8201,100.7058,304.76,96,100,1.77,Asia/Kuala_Lumpur,1675896566
602,kousseri,9.5253,17.5254,311.34,15,17,2.13,Africa/Ndjamena,1675896568
603,storforshei,66.4045,14.5278,279.07,53,75,6.17,Europe/Oslo,1675896569
604,sumkino,58.1074,68.3307,267.16,95,100,2.87,Asia/Yekaterinburg,1675896571
605,kurchum,12.0,12.0,306.99,21,37,4.17,Africa/Lagos,1675896572
606,myanaung,18.1085,95.1432,307.59,40,17,1.34,Asia/Yangon,1675896574
